{"businesses":[{"id":"BcW0vRdM8N-rteR2FfV1jg","alias":"deli-board-san-francisco","name":"Deli Board","image_url":"https://s3-media1.fl.yelpcdn.com/bphoto/ooKB6pjGHrHqaYLCEfcdpw/o.jpg","is_closed":false,"url":"https://www.yelp.com/biz/deli-board-san-francisco?adjust_creative=gdYUKRGVlg7G4xcf3j1hQA&utm_campaign=yelp_api_v3&utm_medium=api_v3_business_search&utm_source=gdYUKRGVlg7G4xcf3j1hQA","review_count":1566,"categories":[{"alias":"delis","title":"Delis"},{"alias":"sandwiches","title":"Sandwiches"}],"rating":4.5,"coordinates":{"latitude":37.7776247966103,"longitude":-122.407012712007},"transactions":["delivery"],"price":"$$","location":{"address1":"1058 Folsom St","address2":"","address3":"","city":"San Francisco","zip_code":"94103","country":"US","state":"CA","display_address":["1058 Folsom St","San Francisco, CA 94103"]},"phone":"+14155527687","display_phone":"(415) 552-7687","distance":1201.0092939107112},{"id":"FmGF1B-Rpsjq1f5b56qMwg","alias":"molinari-delicatessen-san-francisco","name":"Molinari Delicatessen","image_url":"https://s3-media3.fl.yelpcdn.com/bphoto/4gRY9rVs8JyHvngljSzXyA/o.jpg","is_closed":false,"url":"https://www.yelp.com/biz/molinari-delicatessen-san-francisco?adjust_creative=gdYUKRGVlg7G4xcf3j1hQA&utm_campaign=yelp_api_v3&utm_medium=api_v3_business_search&utm_source=gdYUKRGVlg7G4xcf3j1hQA","review_count":1263,"categories":[{"alias":"delis","title":"Delis"}],"rating":4.5,"coordinates":{"latitude":37.79838,"longitude":-122.40782},"transactions":["delivery","pickup"],"price":"$$","location":{"address1":"373 Columbus Ave","address2":"","address3":"","city":"San Francisco","zip_code":"94133","country":"US","state":"CA","display_address":["373 Columbus Ave","San Francisco, CA 94133"]},"phone":"+14154212337","display_phone":"(415) 421-2337","distance":1465.2460213942109},{"id":"uFeOc6t94xLp-JPP6fhnaA","alias":"wise-sons-jewish-delicatessen-san-francisco-20","name":"Wise Sons Jewish Deli","image_url":"https://s3-media3.fl.yelpcdn.com/bphoto/_vlQS7lrR3ReuRtTkImAUQ/o.jpg","is_closed":false,"url":"https://www.yelp.com/biz/wise-sons-jewish-delicatessen-san-francisco-20?adjust_creative=gdYUKRGVlg7G4xcf3j1hQA&utm_campaign=yelp_api_v3&utm_medium=api_v3_business_search&utm_source=gdYUKRGVlg7G4xcf3j1hQA","review_count":330,"categories":[{"alias":"delis","title":"Delis"},{"alias":"sandwiches","title":"Sandwiches"},{"alias":"bagels","title":"Bagels"}],"rating":3.5,"coordinates":{"latitude":37.7861320529474,"longitude":-122.40342621841},"transactions":[],"price":"$$","location":{"address1":"736 Mission St","address2":"","address3":"The Contemporary Jewish Museum","city":"San Francisco","zip_code":"94103","country":"US","state":"CA","display_address":["736 Mission St","The Contemporary Jewish Museum","San Francisco, CA 94103"]},"phone":"+14156557887","display_phone":"(415) 655-7887","distance":314.79308965734816},{"id":"2hGIxgprREdBieylltWaRQ","alias":"limoncello-san-francisco","name":"Limoncello","image_url":"https://s3-media1.fl.yelpcdn.com/bphoto/XopnVbEqq3mc0Uq9DyPvaQ/o.jpg","is_closed":false,"url":"https://www.yelp.com/biz/limoncello-san-francisco?adjust_creative=gdYUKRGVlg7G4xcf3j1hQA&utm_campaign=yelp_api_v3&utm_medium=api_v3_business_search&utm_source=gdYUKRGVlg7G4xcf3j1hQA","review_count":1495,"categories":[{"alias":"sandwiches","title":"Sandwiches"},{"alias":"delis","title":"Delis"},{"alias":"beer_and_wine","title":"Beer, Wine & Spirits"}],"rating":5,"coordinates":{"latitude":37.7873184067081,"longitude":-122.423591369312},"transactions":["delivery","pickup"],"price":"$$","location":{"address1":"1400 Sutter St","address2":"","address3":null,"city":"San Francisco","zip_code":"94109","country":"US","state":"CA","display_address":["1400 Sutter St","San Francisco, CA 94109"]},"phone":"+14156386361","display_phone":"(415) 638-6361","distance":2076.1540447650927},{"id":"zYUgm_qOcly8mhLdTSFnKw","alias":"palermo-ii-delicatessen-san-francisco","name":"Palermo II Delicatessen","image_url":"https://s3-media2.fl.yelpcdn.com/bphoto/Ytqyd4Pd8v84H86RaH2FVQ/o.jpg","is_closed":false,"url":"https://www.yelp.com/biz/palermo-ii-delicatessen-san-francisco?adjust_creative=gdYUKRGVlg7G4xcf3j1hQA&utm_campaign=yelp_api_v3&utm_medium=api_v3_business_search&utm_source=gdYUKRGVlg7G4xcf3j1hQA","review_count":101,"categories":[{"alias":"delis","title":"Delis"},{"alias":"sandwiches","title":"Sandwiches"},{"alias":"italian","title":"Italian"}],"rating":5,"coordinates":{"latitude":37.79894,"longitude":-122.4086},"transactions":["delivery","pickup"],"price":"$$","location":{"address1":"658 Vallejo St","address2":null,"address3":"","city":"San Francisco","zip_code":"94133","country":"US","state":"CA","display_address":["658 Vallejo St","San Francisco, CA 94133"]},"phone":"+14159370161","display_phone":"(415) 937-0161","distance":1517.0065811617371},{"id":"Xnm-vHeO_T3C7rfVyRMXig","alias":"the-sandwich-boss-san-francisco","name":"The Sandwich Boss","image_url":"https://s3-media3.fl.yelpcdn.com/bphoto/qdXzkarmiEY1iijpqYR_Sw/o.jpg","is_closed":false,"url":"https://www.yelp.com/biz/the-sandwich-boss-san-francisco?adjust_creative=gdYUKRGVlg7G4xcf3j1hQA&utm_campaign=yelp_api_v3&utm_medium=api_v3_business_search&utm_source=gdYUKRGVlg7G4xcf3j1hQA","review_count":199,"categories":[{"alias":"delis","title":"Delis"},{"alias":"sandwiches","title":"Sandwiches"},{"alias":"salad","title":"Salad"}],"rating":4.5,"coordinates":{"latitude":37.784358,"longitude":-122.395457},"transactions":["delivery","pickup"],"price":"$$","location":{"address1":"600 Harrison St","address2":"","address3":"Eden Plaza Cafe","city":"San Francisco","zip_code":"94107","country":"US","state":"CA","display_address":["600 Harrison St","Eden Plaza Cafe","San Francisco, CA 94107"]},"phone":"+14157774709","display_phone":"(415) 777-4709","distance":485.9981708973906},{"id":"0mZeR3TwxmZGLCxzcf620A","alias":"5th-avenue-deli-and-market-san-francisco","name":"5th Avenue Deli & Market","image_url":"https://s3-media2.fl.yelpcdn.com/bphoto/U-549TJw4UFoZ3-5dm3uZw/o.jpg","is_closed":false,"url":"https://www.yelp.com/biz/5th-avenue-deli-and-market-san-francisco?adjust_creative=gdYUKRGVlg7G4xcf3j1hQA&utm_campaign=yelp_api_v3&utm_medium=api_v3_business_search&utm_source=gdYUKRGVlg7G4xcf3j1hQA","review_count":71,"categories":[{"alias":"delis","title":"Delis"},{"alias":"grocery","title":"Grocery"},{"alias":"sandwiches","title":"Sandwiches"}],"rating":4.5,"coordinates":{"latitude":37.7951292693615,"longitude":-122.396138906479},"transactions":["delivery","pickup"],"price":"$","location":{"address1":"4 Embarcadero Ctr","address2":"","address3":"","city":"San Francisco","zip_code":"94111","country":"US","state":"CA","display_address":["4 Embarcadero Ctr","San Francisco, CA 94111"]},"phone":"+14157570950","display_phone":"(415) 757-0950","distance":986.324531541846},{"id":"B61vZd9neTI8F7zZ-vApmw","alias":"the-boys-deli-san-francisco","name":"The Boys’ Deli","image_url":"https://s3-media2.fl.yelpcdn.com/bphoto/tZpUErR_DtxQP3LYv75S8A/o.jpg","is_closed":false,"url":"https://www.yelp.com/biz/the-boys-deli-san-francisco?adjust_creative=gdYUKRGVlg7G4xcf3j1hQA&utm_campaign=yelp_api_v3&utm_medium=api_v3_business_search&utm_source=gdYUKRGVlg7G4xcf3j1hQA","review_count":374,"categories":[{"alias":"delis","title":"Delis"},{"alias":"sandwiches","title":"Sandwiches"},{"alias":"breakfast_brunch","title":"Breakfast & Brunch"}],"rating":4.5,"coordinates":{"latitude":37.7971806,"longitude":-122.421842},"transactions":["delivery","pickup"],"price":"$$","location":{"address1":"2222 Polk St","address2":"","address3":"Polk & Green Produce Market","city":"San Francisco","zip_code":"94109","country":"US","state":"CA","display_address":["2222 Polk St","Polk & Green Produce Market","San Francisco, CA 94109"]},"phone":"+14157763099","display_phone":"(415) 776-3099","distance":2235.2674125931903},{"id":"dv9gdJrBG7SZ8aWYkxG_3w","alias":"sutter-st-cafe-san-francisco","name":"Sutter St. Cafe","image_url":"https://s3-media1.fl.yelpcdn.com/bphoto/vvGpL9cEIMi8PXHldqb3FA/o.jpg","is_closed":false,"url":"https://www.yelp.com/biz/sutter-st-cafe-san-francisco?adjust_creative=gdYUKRGVlg7G4xcf3j1hQA&utm_campaign=yelp_api_v3&utm_medium=api_v3_business_search&utm_source=gdYUKRGVlg7G4xcf3j1hQA","review_count":233,"categories":[{"alias":"cafes","title":"Cafes"},{"alias":"delis","title":"Delis"}],"rating":4.5,"coordinates":{"latitude":37.7894760577176,"longitude":-122.407699611023},"transactions":["delivery","pickup"],"price":"$","location":{"address1":"450 Sutter St","address2":null,"address3":"","city":"San Francisco","zip_code":"94108","country":"US","state":"CA","display_address":["450 Sutter St","San Francisco, CA 94108"]},"phone":"+14153628342","display_phone":"(415) 362-8342","distance":737.7876443304846},{"id":"eZ2_6Wx-Lqp_mLtG6-zzTg","alias":"sammys-on-2nd-san-francisco","name":"Sammy's on 2nd","image_url":"https://s3-media3.fl.yelpcdn.com/bphoto/i1i_Yc5TGyqUvzAAC0t-WQ/o.jpg","is_closed":false,"url":"https://www.yelp.com/biz/sammys-on-2nd-san-francisco?adjust_creative=gdYUKRGVlg7G4xcf3j1hQA&utm_campaign=yelp_api_v3&utm_medium=api_v3_business_search&utm_source=gdYUKRGVlg7G4xcf3j1hQA","review_count":218,"categories":[{"alias":"beer_and_wine","title":"Beer, Wine & Spirits"},{"alias":"sandwiches","title":"Sandwiches"}],"rating":4,"coordinates":{"latitude":37.7881,"longitude":-122.40028},"transactions":["delivery"],"price":"$","location":{"address1":"84 2nd St","address2":null,"address3":"","city":"San Francisco","zip_code":"94105","country":"US","state":"CA","display_address":["84 2nd St","San Francisco, CA 94105"]},"phone":"+14152430311","display_phone":"(415) 243-0311","distance":146.3807329561209},{"id":"vavslHAhF1QCjHwMOWmYrw","alias":"mark-n-mike-s-san-francisco-2","name":"MARK ‘N MIKE’S","image_url":"https://s3-media2.fl.yelpcdn.com/bphoto/vAEPXSjpRCrD7SDrKg3UzA/o.jpg","is_closed":false,"url":"https://www.yelp.com/biz/mark-n-mike-s-san-francisco-2?adjust_creative=gdYUKRGVlg7G4xcf3j1hQA&utm_campaign=yelp_api_v3&utm_medium=api_v3_business_search&utm_source=gdYUKRGVlg7G4xcf3j1hQA","review_count":30,"categories":[{"alias":"delis","title":"Delis"}],"rating":4.5,"coordinates":{"latitude":37.79420664987414,"longitude":-122.3947878844176},"transactions":[],"location":{"address1":"1 Market St","address2":"Inside One Market Restaurant","address3":"","city":"San Francisco","zip_code":"94105","country":"US","state":"CA","display_address":["1 Market St","Inside One Market Restaurant","San Francisco, CA 94105"]},"phone":"+14157775577","display_phone":"(415) 777-5577","distance":933.2026485453612},{"id":"kEhq0qT_JFxgeh-pCS4lPA","alias":"the-sentinel-san-francisco","name":"The Sentinel","image_url":"https://s3-media1.fl.yelpcdn.com/bphoto/VctZOoSLiQ1P-g_cHa49QQ/o.jpg","is_closed":false,"url":"https://www.yelp.com/biz/the-sentinel-san-francisco?adjust_creative=gdYUKRGVlg7G4xcf3j1hQA&utm_campaign=yelp_api_v3&utm_medium=api_v3_business_search&utm_source=gdYUKRGVlg7G4xcf3j1hQA","review_count":1292,"categories":[{"alias":"sandwiches","title":"Sandwiches"}],"rating":4,"coordinates":{"latitude":37.7882977785009,"longitude":-122.401372356986},"transactions":["pickup"],"price":"$","location":{"address1":"37 New Montgomery St","address2":"","address3":"","city":"San Francisco","zip_code":"94105","country":"US","state":"CA","display_address":["37 New Montgomery St","San Francisco, CA 94105"]},"phone":"+14157698109","display_phone":"(415) 769-8109","distance":199.81617618665948},{"id":"gtBDOQq3TyiiulKmJpny0g","alias":"lous-cafe-san-francisco-5","name":"Lou's Cafe","image_url":"https://s3-media1.fl.yelpcdn.com/bphoto/NWHZpUrTSyS3FfhoiN-_pg/o.jpg","is_closed":false,"url":"https://www.yelp.com/biz/lous-cafe-san-francisco-5?adjust_creative=gdYUKRGVlg7G4xcf3j1hQA&utm_campaign=yelp_api_v3&utm_medium=api_v3_business_search&utm_source=gdYUKRGVlg7G4xcf3j1hQA","review_count":175,"categories":[{"alias":"salad","title":"Salad"},{"alias":"soup","title":"Soup"},{"alias":"sandwiches","title":"Sandwiches"}],"rating":4.5,"coordinates":{"latitude":37.79282922333021,"longitude":-122.3989569415474},"transactions":["delivery","pickup"],"price":"$","location":{"address1":"100 Pine St","address2":"Ste 102","address3":"","city":"San Francisco","zip_code":"94111","country":"US","state":"CA","display_address":["100 Pine St","Ste 102","San Francisco, CA 94111"]},"phone":"+14152834777","display_phone":"(415) 283-4777","distance":667.2886389665307},{"id":"hoZ-BYwxXSNd5gaLUFcU7Q","alias":"fatted-calf-san-francisco","name":"Fatted Calf","image_url":"https://s3-media2.fl.yelpcdn.com/bphoto/VfsL2dhCol17CprQ0gLDxg/o.jpg","is_closed":false,"url":"https://www.yelp.com/biz/fatted-calf-san-francisco?adjust_creative=gdYUKRGVlg7G4xcf3j1hQA&utm_campaign=yelp_api_v3&utm_medium=api_v3_business_search&utm_source=gdYUKRGVlg7G4xcf3j1hQA","review_count":343,"categories":[{"alias":"meats","title":"Meat Shops"}],"rating":4.5,"coordinates":{"latitude":37.77616,"longitude":-122.42319},"transactions":["delivery"],"price":"$$","location":{"address1":"320 Fell St","address2":"","address3":"","city":"San Francisco","zip_code":"94102","country":"US","state":"CA","display_address":["320 Fell St","San Francisco, CA 94102"]},"phone":"+14154005614","display_phone":"(415) 400-5614","distance":2371.3135544823795},{"id":"2TUrb8EZwHY3Ouj67sdaaA","alias":"wise-sons-jewish-delicatessen-san-francisco-17","name":"Wise Sons Jewish Delicatessen","image_url":"https://s3-media4.fl.yelpcdn.com/bphoto/2tm7ewHver9PaCv3Y4hYHg/o.jpg","is_closed":false,"url":"https://www.yelp.com/biz/wise-sons-jewish-delicatessen-san-francisco-17?adjust_creative=gdYUKRGVlg7G4xcf3j1hQA&utm_campaign=yelp_api_v3&utm_medium=api_v3_business_search&utm_source=gdYUKRGVlg7G4xcf3j1hQA","review_count":175,"categories":[{"alias":"delis","title":"Delis"},{"alias":"sandwiches","title":"Sandwiches"}],"rating":4,"coordinates":{"latitude":37.7953897580148,"longitude":-122.393274307251},"transactions":[],"price":"$$","location":{"address1":"Ferry Building Farmer's Market","address2":"","address3":"1 Ferry Bldg","city":"San Francisco","zip_code":"94105","country":"US","state":"CA","display_address":["Ferry Building Farmer's Market","1 Ferry Bldg","San Francisco, CA 94105"]},"phone":"+14157873354","display_phone":"(415) 787-3354","distance":1114.1486963413138},{"id":"1bvordoxuK59aoPrOQpA7g","alias":"lucca-delicatessen-san-francisco","name":"Lucca Delicatessen","image_url":"https://s3-media2.fl.yelpcdn.com/bphoto/6XMGUXatOZzmlltOhP-yvg/o.jpg","is_closed":false,"url":"https://www.yelp.com/biz/lucca-delicatessen-san-francisco?adjust_creative=gdYUKRGVlg7G4xcf3j1hQA&utm_campaign=yelp_api_v3&utm_medium=api_v3_business_search&utm_source=gdYUKRGVlg7G4xcf3j1hQA","review_count":762,"categories":[{"alias":"delis","title":"Delis"},{"alias":"sandwiches","title":"Sandwiches"},{"alias":"cheese","title":"Cheese Shops"}],"rating":4,"coordinates":{"latitude":37.80065,"longitude":-122.43836},"transactions":["delivery","pickup"],"price":"$$","location":{"address1":"2120 Chestnut St","address2":"","address3":"","city":"San Francisco","zip_code":"94123","country":"US","state":"CA","display_address":["2120 Chestnut St","San Francisco, CA 94123"]},"phone":"+14159217873","display_phone":"(415) 921-7873","distance":3708.4524038337845},{"id":"2b4YW6ZKXq45TfZA53_zXg","alias":"teds-market-and-deli-san-francisco-5","name":"Ted's Market & Deli","image_url":"https://s3-media1.fl.yelpcdn.com/bphoto/eXJt4pLoJrsW9OHLOpWedA/o.jpg","is_closed":false,"url":"https://www.yelp.com/biz/teds-market-and-deli-san-francisco-5?adjust_creative=gdYUKRGVlg7G4xcf3j1hQA&utm_campaign=yelp_api_v3&utm_medium=api_v3_business_search&utm_source=gdYUKRGVlg7G4xcf3j1hQA","review_count":528,"categories":[{"alias":"delis","title":"Delis"},{"alias":"sandwiches","title":"Sandwiches"},{"alias":"salad","title":"Salad"}],"rating":4.5,"coordinates":{"latitude":37.77287,"longitude":-122.41623},"transactions":["delivery","pickup"],"price":"$","location":{"address1":"1530 Howard St","address2":"","address3":"","city":"San Francisco","zip_code":"94103","country":"US","state":"CA","display_address":["1530 Howard St","San Francisco, CA 94103"]},"phone":"+14155520309","display_phone":"(415) 552-0309","distance":2115.7889554077174},{"id":"yGEc-cj9Quk5mUh7maoPXA","alias":"freddies-sandwiches-san-francisco","name":"Freddie's Sandwiches","image_url":"https://s3-media4.fl.yelpcdn.com/bphoto/_XJEHb26zY8OiK7Ky1Z6xQ/o.jpg","is_closed":false,"url":"https://www.yelp.com/biz/freddies-sandwiches-san-francisco?adjust_creative=gdYUKRGVlg7G4xcf3j1hQA&utm_campaign=yelp_api_v3&utm_medium=api_v3_business_search&utm_source=gdYUKRGVlg7G4xcf3j1hQA","review_count":549,"categories":[{"alias":"sandwiches","title":"Sandwiches"}],"rating":4.5,"coordinates":{"latitude":37.8052368164062,"longitude":-122.410316467285},"transactions":["delivery","pickup"],"price":"$","location":{"address1":"300 Francisco St","address2":"","address3":"","city":"San Francisco","zip_code":"94133","country":"US","state":"CA","display_address":["300 Francisco St","San Francisco, CA 94133"]},"phone":"+14154332882","display_phone":"(415) 433-2882","distance":2235.7728814699617},{"id":"kK0s7FAovaLmVDM4D_NdSQ","alias":"good-luck-cafe-and-deli-san-francisco","name":"Good Luck Cafe and Deli","image_url":"https://s3-media4.fl.yelpcdn.com/bphoto/DKjTWSqKsK1cULo5vScTfA/o.jpg","is_closed":false,"url":"https://www.yelp.com/biz/good-luck-cafe-and-deli-san-francisco?adjust_creative=gdYUKRGVlg7G4xcf3j1hQA&utm_campaign=yelp_api_v3&utm_medium=api_v3_business_search&utm_source=gdYUKRGVlg7G4xcf3j1hQA","review_count":439,"categories":[{"alias":"delis","title":"Delis"},{"alias":"cafes","title":"Cafes"},{"alias":"sandwiches","title":"Sandwiches"}],"rating":4.5,"coordinates":{"latitude":37.79385,"longitude":-122.40482},"transactions":["delivery","pickup"],"price":"$","location":{"address1":"621 Kearny St","address2":null,"address3":"","city":"San Francisco","zip_code":"94108","country":"US","state":"CA","display_address":["621 Kearny St","San Francisco, CA 94108"]},"phone":"+14157812328","display_phone":"(415) 781-2328","distance":888.8261808428093},{"id":"n_N_aY_XGhvvVjmXg7XjEA","alias":"saltys-san-francisco-2","name":"Salty's","image_url":"https://s3-media4.fl.yelpcdn.com/bphoto/1RAfP1dA1GR7cBNgUgOJkg/o.jpg","is_closed":false,"url":"https://www.yelp.com/biz/saltys-san-francisco-2?adjust_creative=gdYUKRGVlg7G4xcf3j1hQA&utm_campaign=yelp_api_v3&utm_medium=api_v3_business_search&utm_source=gdYUKRGVlg7G4xcf3j1hQA","review_count":129,"categories":[{"alias":"delis","title":"Delis"},{"alias":"sandwiches","title":"Sandwiches"},{"alias":"coffee","title":"Coffee & Tea"}],"rating":5,"coordinates":{"latitude":37.7826302,"longitude":-122.4205352},"transactions":["delivery","pickup"],"price":"$$","location":{"address1":"748 Van Ness Ave","address2":null,"address3":"","city":"San Francisco","zip_code":"94102","country":"US","state":"CA","display_address":["748 Van Ness Ave","San Francisco, CA 94102"]},"phone":"+14154004180","display_phone":"(415) 400-4180","distance":1864.808260787198}],"total":752,"region":{"center":{"longitude":-122.399972,"latitude":37.786882}}}